City_ID,City,Country,Date,Lat,Lng,Max Temp,Humidity,Cloudiness,Wind Speed,Current Description
0,Esperance,AU,2022-01-09 19:32:32,-33.8667,121.9,60.64,67,100,14.97,overcast clouds
1,Nikolskoye,RU,2022-01-09 19:32:33,59.7035,30.7861,26.49,98,98,1.9,snow
2,Kosh-Agach,RU,2022-01-09 19:32:33,50.0,88.6667,-6.43,83,25,3.69,scattered clouds
3,Uinskoye,RU,2022-01-09 19:32:33,56.8817,56.5813,4.66,95,100,11.05,overcast clouds
4,Bonnyville,CA,2022-01-09 19:32:34,54.2668,-110.735,-8.28,90,100,4.41,overcast clouds
5,Barrow,US,2022-01-09 19:30:02,71.2906,-156.7887,-20.18,83,0,4.61,clear sky
6,Kaitangata,NZ,2022-01-09 19:32:34,-46.2817,169.8464,57.74,93,85,1.28,overcast clouds
7,Saskylakh,RU,2022-01-09 19:32:35,71.9167,114.0833,6.31,91,100,13.31,overcast clouds
8,Torbay,CA,2022-01-09 19:32:35,47.6666,-52.7314,26.58,66,20,4.0,few clouds
9,La Baule-Escoublac,FR,2022-01-09 19:32:35,47.2922,-2.364,51.01,97,75,3.44,light intensity drizzle
10,Chokurdakh,RU,2022-01-09 19:32:36,70.6333,147.9167,-25.19,94,11,8.48,few clouds
11,Port Elizabeth,ZA,2022-01-09 19:30:35,-33.918,25.5701,66.49,88,90,6.91,overcast clouds
12,Avarua,CK,2022-01-09 19:32:36,-21.2078,-159.775,82.45,74,99,11.5,overcast clouds
13,Thompson,CA,2022-01-09 19:32:37,55.7435,-97.8558,-21.84,69,0,14.97,clear sky
14,Agropoli,IT,2022-01-09 19:32:37,40.3469,14.9966,49.28,81,92,18.84,overcast clouds
15,Dale,US,2022-01-09 19:32:37,38.1689,-86.99,40.89,65,0,14.97,clear sky
16,Kavieng,PG,2022-01-09 19:32:38,-2.5744,150.7967,80.83,76,100,4.52,light rain
17,Sinnar,SD,2022-01-09 19:32:38,13.5691,33.5672,84.24,26,11,8.93,few clouds
18,Hithadhoo,MV,2022-01-09 19:32:38,-0.6,73.0833,81.23,76,47,6.85,scattered clouds
19,Villarrica,PY,2022-01-09 19:32:39,-25.75,-56.4333,73.27,83,100,5.03,overcast clouds
20,Busselton,AU,2022-01-09 19:32:39,-33.65,115.3333,55.09,80,59,9.42,broken clouds
21,Sorland,NO,2022-01-09 19:32:39,67.667,12.6934,33.66,64,5,9.62,clear sky
22,Dawlatabad,AF,2022-01-09 19:32:40,36.4141,64.9053,41.09,76,8,3.18,clear sky
23,Punta Arenas,CL,2022-01-09 19:32:40,-53.15,-70.9167,51.91,58,75,16.11,broken clouds
24,Saint George,US,2022-01-09 19:32:41,37.1041,-113.5841,57.67,38,0,1.99,clear sky
25,Hermanus,ZA,2022-01-09 19:32:41,-34.4187,19.2345,74.89,79,100,13.15,overcast clouds
26,Yulara,AU,2022-01-09 19:32:41,-25.2406,130.9889,85.84,15,7,13.8,clear sky
27,New Norfolk,AU,2022-01-09 19:32:42,-42.7826,147.0587,61.75,83,100,2.46,overcast clouds
28,Port Alfred,ZA,2022-01-09 19:32:42,-33.5906,26.891,74.19,89,42,24.76,scattered clouds
29,Alta Floresta,BR,2022-01-09 19:32:42,-9.8756,-56.0861,85.82,66,40,14.97,scattered clouds
30,Guimar,ES,2022-01-09 19:32:42,28.3039,-16.4325,64.76,44,97,4.09,overcast clouds
31,Severo-Kurilsk,RU,2022-01-09 19:32:43,50.6789,156.125,28.42,84,84,6.93,broken clouds
32,Rockhampton,AU,2022-01-09 19:30:14,-23.3833,150.5,73.29,94,13,6.91,few clouds
33,Bethel,US,2022-01-09 19:28:27,41.3712,-73.414,41.58,75,100,12.66,overcast clouds
34,Yellowknife,CA,2022-01-09 19:30:07,62.456,-114.3525,-23.71,81,75,8.05,broken clouds
35,Hasaki,JP,2022-01-09 19:32:43,35.7333,140.8333,41.4,74,100,20.51,overcast clouds
36,Hobart,AU,2022-01-09 19:27:59,-42.8794,147.3294,60.26,88,75,3.44,broken clouds
37,Udachnyy,RU,2022-01-09 19:29:02,66.4167,112.4,3.45,77,100,20.85,overcast clouds
38,Rikitea,PF,2022-01-09 19:32:44,-23.1203,-134.9692,78.06,78,100,19.37,overcast clouds
39,Bolobo,CD,2022-01-09 19:32:44,-2.1667,16.2333,76.32,77,87,3.18,overcast clouds
40,Tiksi,RU,2022-01-09 19:32:44,71.6872,128.8694,-2.02,68,100,16.24,overcast clouds
41,Jamestown,US,2022-01-09 19:32:45,42.097,-79.2353,41.09,72,100,21.99,mist
42,Sept-Iles,CA,2022-01-09 19:32:45,50.2001,-66.3821,22.05,91,100,8.99,snow
43,Oranjestad,AW,2022-01-09 19:30:00,12.524,-70.027,80.55,80,20,5.99,few clouds
44,Sao Miguel Do Araguaia,BR,2022-01-09 19:32:45,-13.275,-50.1628,72.72,96,100,8.12,light rain
45,Geraldton,AU,2022-01-09 19:32:46,-28.7667,114.6,61.21,77,0,11.5,clear sky
46,Grand Gaube,MU,2022-01-09 19:33:46,-20.0064,57.6608,77.4,86,100,1.99,overcast clouds
47,Vao,NC,2022-01-09 19:33:46,-22.6667,167.4833,77.04,83,99,24.7,overcast clouds
48,Sol-Iletsk,RU,2022-01-09 19:33:47,51.1631,54.9918,-1.84,93,14,5.86,few clouds
49,Adrar,MR,2022-01-09 19:33:47,20.5022,-10.0711,63.68,10,99,11.01,overcast clouds
50,Faanui,PF,2022-01-09 19:33:47,-16.4833,-151.75,80.28,75,62,1.97,light rain
51,Floro,NO,2022-01-09 19:33:48,61.5996,5.0328,37.36,52,20,13.8,few clouds
52,Nome,US,2022-01-09 19:29:07,64.5011,-165.4064,3.27,60,0,39.12,clear sky
53,Khatanga,RU,2022-01-09 19:33:48,71.9667,102.5,-21.64,100,34,4.0,scattered clouds
54,Zaraza,VE,2022-01-09 19:33:48,9.3503,-65.3245,90.27,32,96,10.49,overcast clouds
55,Leshukonskoye,RU,2022-01-09 19:33:49,64.8989,45.7622,3.43,95,100,7.43,overcast clouds
56,Albany,US,2022-01-09 19:33:49,42.6001,-73.9662,37.31,88,100,3.0,overcast clouds
57,Araouane,ML,2022-01-09 19:33:49,18.9048,-3.5265,62.2,14,79,9.91,broken clouds
58,Soyo,AO,2022-01-09 19:31:32,-6.1349,12.3689,77.65,88,100,5.14,overcast clouds
59,Bredasdorp,ZA,2022-01-09 19:33:50,-34.5322,20.0403,69.12,88,100,5.75,light rain
60,Yerofey Pavlovich,RU,2022-01-09 19:33:50,53.9667,121.9667,-19.73,95,32,3.42,scattered clouds
61,Ceres,US,2022-01-09 19:30:30,37.5949,-120.9577,63.55,93,0,3.44,clear sky
62,Dire Dawa,ET,2022-01-09 19:33:51,9.5931,41.8661,69.3,65,3,3.22,clear sky
63,Biograd Na Moru,HR,2022-01-09 19:33:51,43.9433,15.4519,42.76,59,100,5.41,overcast clouds
64,Ambilobe,MG,2022-01-09 19:33:51,-13.2,49.05,75.38,93,100,0.69,moderate rain
65,Palmi,IT,2022-01-09 19:33:52,38.3653,15.8615,49.46,76,85,22.7,overcast clouds
66,Cherskiy,RU,2022-01-09 19:33:52,68.75,161.3,-22.43,99,100,3.38,overcast clouds
67,Tolaga Bay,NZ,2022-01-09 19:33:52,-38.3667,178.3,71.42,61,100,5.01,overcast clouds
68,Georgetown,MY,2022-01-09 19:28:52,5.4112,100.3354,80.89,80,40,4.61,scattered clouds
69,Ribeira Grande,PT,2022-01-09 19:33:53,38.5167,-28.7,61.2,77,40,14.97,scattered clouds
70,Sitka,US,2022-01-09 19:33:53,57.0531,-135.33,42.69,75,100,29.93,light rain
71,Fuyu,CN,2022-01-09 19:33:53,45.1833,124.8167,-3.17,99,100,3.8,overcast clouds
72,Bluff,NZ,2022-01-09 19:33:54,-46.6,168.3333,59.81,95,100,4.72,overcast clouds
73,Hay River,CA,2022-01-09 19:29:40,60.8156,-115.7999,-20.22,76,75,2.3,light snow
74,Namibe,AO,2022-01-09 19:33:54,-15.1961,12.1522,67.33,78,10,10.47,clear sky
75,Yar-Sale,RU,2022-01-09 19:33:54,66.8333,70.8333,-6.74,92,100,7.78,overcast clouds
76,Caldas Da Rainha,PT,2022-01-09 19:33:55,39.4033,-9.1384,57.02,90,96,1.99,overcast clouds
77,Akyab,MM,2022-01-09 19:33:55,20.15,92.9,67.15,75,0,7.78,clear sky
78,Atuona,PF,2022-01-09 19:33:55,-9.8,-139.0333,78.91,73,26,19.51,scattered clouds
79,Richards Bay,ZA,2022-01-09 19:33:56,-28.783,32.0377,72.1,80,3,7.9,clear sky
80,Havelock,US,2022-01-09 19:33:56,34.8791,-76.9013,71.55,74,75,7.0,broken clouds
81,Ushuaia,AR,2022-01-09 19:33:56,-54.8,-68.3,46.06,61,75,21.85,broken clouds
82,Half Moon Bay,US,2022-01-09 19:30:21,37.4636,-122.4286,61.3,75,0,0.0,clear sky
83,Strathpeffer,GB,2022-01-09 19:33:57,57.588,-4.5382,34.7,97,80,1.28,broken clouds
84,Port Macquarie,AU,2022-01-09 19:33:57,-31.4333,152.9167,69.76,84,46,7.05,scattered clouds
85,Airai,TL,2022-01-09 19:33:58,-8.9266,125.4092,60.78,90,77,1.23,broken clouds
86,Botwood,CA,2022-01-09 19:33:58,49.1499,-55.3482,24.91,82,32,10.16,scattered clouds
87,Bagenalstown,IE,2022-01-09 19:33:58,52.7003,-6.9618,45.12,95,100,4.38,overcast clouds
88,Lebu,CL,2022-01-09 19:33:59,-37.6167,-73.65,64.9,77,25,10.11,scattered clouds
89,Port Hardy,CA,2022-01-09 19:33:59,50.6996,-127.4199,50.76,81,75,25.32,broken clouds
90,Upernavik,GL,2022-01-09 19:33:59,72.7868,-56.1549,-0.26,99,100,11.12,overcast clouds
91,Klaksvik,FO,2022-01-09 19:34:00,62.2266,-6.589,41.92,86,52,31.5,broken clouds
92,Hofn,IS,2022-01-09 19:34:00,64.2539,-15.2082,42.93,86,100,22.21,overcast clouds
93,Olga,RU,2022-01-09 19:34:00,43.7444,135.2892,7.27,54,0,5.77,clear sky
94,College,US,2022-01-09 19:30:23,64.8569,-147.8028,-9.74,72,20,10.36,few clouds
95,Padang,ID,2022-01-09 19:30:55,-0.9492,100.3543,76.82,89,100,4.85,overcast clouds
96,Doha,QA,2022-01-09 19:35:01,25.2867,51.5333,60.78,61,0,2.3,clear sky
97,Saint-Philippe,RE,2022-01-09 19:35:01,-21.3585,55.7679,78.39,85,63,10.22,light rain
98,Vanimo,PG,2022-01-09 19:35:01,-2.6741,141.3028,75.56,88,100,5.64,overcast clouds
99,Kieta,PG,2022-01-09 19:35:02,-6.2167,155.6333,79.65,83,24,7.83,few clouds
100,Calvinia,ZA,2022-01-09 19:35:02,-31.4707,19.776,68.36,74,100,5.46,light rain
101,Kavaratti,IN,2022-01-09 19:35:02,10.5669,72.642,79.79,67,3,7.14,clear sky
102,Pineville,US,2022-01-09 19:32:29,31.3224,-92.4343,80.89,70,0,3.0,clear sky
103,Sungaipenuh,ID,2022-01-09 19:35:03,-2.0833,101.3833,64.8,97,100,1.54,overcast clouds
104,Coihaique,CL,2022-01-09 19:35:03,-45.5752,-72.0662,66.15,42,40,8.05,scattered clouds
105,Mahebourg,MU,2022-01-09 19:35:03,-20.4081,57.7,77.29,83,40,6.91,scattered clouds
106,Mataura,NZ,2022-01-09 19:35:04,-46.1927,168.8643,59.49,96,90,1.79,overcast clouds
107,Anadyr,RU,2022-01-09 19:35:04,64.75,177.4833,-12.5,70,0,8.95,clear sky
108,Lope De Vega,PH,2022-01-09 19:35:05,12.2983,124.6238,72.03,98,48,1.61,scattered clouds
109,Cabo San Lucas,MX,2022-01-09 19:31:38,22.8909,-109.9124,80.62,68,100,5.01,overcast clouds
110,Edd,ER,2022-01-09 19:35:05,13.9297,41.6925,81.32,62,6,18.39,clear sky
111,Porto Velho,BR,2022-01-09 19:35:05,-8.7619,-63.9039,82.45,74,40,4.61,scattered clouds
112,Cape Town,ZA,2022-01-09 19:34:49,-33.9258,18.4232,75.11,65,0,1.01,clear sky
113,Numaran,MX,2022-01-09 19:35:06,20.25,-101.9333,81.82,16,3,3.36,clear sky
114,Price,US,2022-01-09 19:35:06,39.5994,-110.8107,38.12,43,0,0.0,clear sky
115,Beyneu,KZ,2022-01-09 19:35:06,45.3167,55.2,29.88,75,14,20.15,few clouds
116,Guantanamo,CU,2022-01-09 19:35:07,20.1444,-75.2092,85.57,47,15,13.96,few clouds
117,Manjacaze,MZ,2022-01-09 19:35:07,-24.7117,33.8828,70.97,93,11,4.47,few clouds
118,Port-Gentil,GA,2022-01-09 19:35:08,-0.7193,8.7815,80.56,89,40,8.05,scattered clouds
119,Darnah,LY,2022-01-09 19:35:08,32.767,22.6367,56.89,65,91,22.39,overcast clouds
120,Jiaojiang,CN,2022-01-09 19:35:08,28.6803,121.4428,43.0,91,69,4.36,broken clouds
121,San Patricio,US,2022-01-09 19:35:09,28.017,-97.5169,82.49,71,87,13.11,overcast clouds
122,Fenoarivo,MG,2022-01-09 19:35:09,-18.933,47.4354,68.07,77,40,10.36,scattered clouds
123,Tasiilaq,GL,2022-01-09 19:35:09,65.6145,-37.6368,32.16,79,100,51.43,light snow
124,Isangel,VU,2022-01-09 19:35:10,-19.55,169.2667,93.31,52,20,2.3,few clouds
125,Ambon,ID,2022-01-09 19:35:10,-3.6954,128.1814,80.53,81,94,5.59,overcast clouds
126,Kodiak,US,2022-01-09 19:35:10,57.79,-152.4072,31.51,59,100,11.5,light snow
127,Karratha,AU,2022-01-09 19:35:11,-20.7377,116.8463,82.94,66,0,8.81,clear sky
128,Zhigansk,RU,2022-01-09 19:32:45,66.7697,123.3711,-32.19,96,74,18.7,broken clouds
129,Atar,MR,2022-01-09 19:35:11,20.5169,-13.0499,69.57,11,100,6.89,overcast clouds
130,Luderitz,,2022-01-09 19:35:12,-26.6481,15.1594,64.18,93,3,6.64,clear sky
131,San Lawrenz,MT,2022-01-09 19:35:12,36.0553,14.204,54.81,80,100,4.0,light rain
132,Cururupu,BR,2022-01-09 19:35:12,-1.8283,-44.8683,77.07,93,100,1.54,moderate rain
133,Dukat,RU,2022-01-09 19:35:13,62.55,155.55,-12.17,97,48,2.51,scattered clouds
134,Poum,NC,2022-01-09 19:35:13,-20.2333,164.0167,81.21,78,4,16.28,clear sky
135,Codrington,AU,2022-01-09 19:35:13,-38.2667,141.9667,55.22,88,95,8.37,overcast clouds
136,Pascagoula,US,2022-01-09 19:35:14,30.3658,-88.5561,77.04,83,100,10.36,overcast clouds
137,Kapaa,US,2022-01-09 19:36:14,22.0752,-159.319,74.19,82,100,5.75,overcast clouds
138,Ahipara,NZ,2022-01-09 19:36:14,-35.1667,173.1667,69.69,69,100,1.97,overcast clouds
139,Nabire,ID,2022-01-09 19:36:15,-3.3667,135.4833,74.46,92,100,2.62,overcast clouds
140,Taoudenni,ML,2022-01-09 19:36:15,22.6783,-3.9836,59.09,15,5,11.48,clear sky
141,Yuancheng,CN,2022-01-09 19:36:15,36.652,107.7896,26.94,59,100,14.0,overcast clouds
142,Beira,MZ,2022-01-09 19:36:16,-19.8436,34.8389,80.69,74,20,11.5,few clouds
143,Nanortalik,GL,2022-01-09 19:36:16,60.1432,-45.2371,18.88,81,100,36.64,overcast clouds
144,Lodja,CD,2022-01-09 19:36:16,-3.4833,23.4333,71.37,89,100,1.57,overcast clouds
145,Mitchell,US,2022-01-09 19:35:21,43.7094,-98.0298,20.1,47,0,5.99,clear sky
146,Butaritari,KI,2022-01-09 19:36:17,3.0707,172.7902,80.98,76,97,9.89,overcast clouds
147,Vardo,NO,2022-01-09 19:36:17,70.3705,31.1107,26.58,80,100,14.97,overcast clouds
148,Provideniya,RU,2022-01-09 19:36:17,64.3833,-173.3,1.65,61,0,10.22,clear sky
149,Kurilsk,RU,2022-01-09 19:36:18,45.2333,147.8833,25.79,64,99,17.74,overcast clouds
150,Gambela,ET,2022-01-09 19:36:18,8.25,34.5833,82.72,45,11,3.69,few clouds
151,Leningradskiy,RU,2022-01-09 19:36:19,69.3833,178.4167,-14.24,91,59,7.92,broken clouds
152,Qianan,CN,2022-01-09 19:36:19,44.9932,124.0581,-5.76,100,100,3.31,overcast clouds
153,Chipinge,ZW,2022-01-09 19:36:19,-20.1883,32.6236,65.17,61,49,1.43,scattered clouds
154,Fortuna Foothills,US,2022-01-09 19:36:20,32.6578,-114.4119,66.29,30,0,4.0,clear sky
155,Trinidad,BO,2022-01-09 19:36:20,-14.8333,-64.9,89.58,70,75,9.22,broken clouds
156,Sao Filipe,CV,2022-01-09 19:36:20,14.8961,-24.4956,73.22,63,100,5.75,overcast clouds
157,Brae,GB,2022-01-09 19:36:21,60.3964,-1.353,42.71,88,97,22.93,overcast clouds
158,Olafsvik,IS,2022-01-09 19:36:21,64.8945,-23.7142,41.4,80,100,29.64,light rain
159,Kawalu,ID,2022-01-09 19:36:21,-7.3817,108.2082,72.59,97,97,0.45,overcast clouds
160,Sovetskiy,RU,2022-01-09 19:36:22,61.3614,63.5842,5.04,89,92,8.61,overcast clouds
161,Batemans Bay,AU,2022-01-09 19:36:22,-35.7167,150.1833,74.19,90,43,2.42,scattered clouds
162,Arraial Do Cabo,BR,2022-01-09 19:32:31,-22.9661,-42.0278,73.26,83,100,3.44,light intensity drizzle
163,Pringsewu,ID,2022-01-09 19:36:22,-5.3582,104.9744,73.99,97,92,3.24,moderate rain
164,Maniitsoq,GL,2022-01-09 19:36:23,65.4167,-52.9,10.6,89,100,1.23,light snow
165,Korla,CN,2022-01-09 19:36:23,41.7597,86.1469,24.85,65,100,7.31,overcast clouds
166,Aklavik,CA,2022-01-09 19:36:23,68.2191,-135.0107,-24.77,75,40,3.44,scattered clouds
167,Qarchak,IR,2022-01-09 19:36:24,35.4394,51.5689,43.47,39,0,2.37,clear sky
168,Kamaishi,JP,2022-01-09 19:36:24,39.2667,141.8833,32.29,78,100,5.5,overcast clouds
169,Nuuk,GL,2022-01-09 19:36:24,64.1835,-51.7216,14.61,79,75,6.91,light shower snow
170,Hilo,US,2022-01-09 19:32:09,19.7297,-155.09,76.12,71,0,4.61,clear sky
171,Magura Ilvei,RO,2022-01-09 19:36:25,47.3833,24.8,32.18,95,99,3.38,overcast clouds
172,Kruisfontein,ZA,2022-01-09 19:36:25,-34.0033,24.7314,69.4,92,86,5.48,overcast clouds
173,Inuvik,CA,2022-01-09 19:36:26,68.3499,-133.7218,-20.99,72,75,3.44,light snow
174,Alofi,NU,2022-01-09 19:36:26,-19.0595,-169.9187,80.49,89,83,5.75,broken clouds
175,Kinsale,IE,2022-01-09 19:36:26,51.7075,-8.5306,49.37,93,100,3.44,light intensity drizzle
176,Inhambane,MZ,2022-01-09 19:36:26,-23.865,35.3833,75.81,85,99,8.48,light rain
177,Vaini,TO,2022-01-09 19:36:27,-21.2,-175.2,77.16,94,100,5.75,overcast clouds
178,Bathsheba,BB,2022-01-09 19:36:27,13.2167,-59.5167,83.01,61,75,20.71,broken clouds
179,Torbat-E Jam,IR,2022-01-09 19:36:27,35.244,60.6225,38.21,47,0,2.59,clear sky
180,Cam Ranh,VN,2022-01-09 19:36:28,11.9214,109.1591,73.36,94,40,5.75,scattered clouds
181,Carnarvon,AU,2022-01-09 19:36:28,-24.8667,113.6333,71.67,73,0,17.27,clear sky
182,Nelson Bay,AU,2022-01-09 19:36:28,-32.7167,152.15,73.96,91,3,1.01,clear sky
183,Luangwa,ZM,2022-01-09 19:37:29,-15.6167,30.4167,71.58,92,100,2.46,overcast clouds
184,Ponta Do Sol,PT,2022-01-09 19:37:29,32.6667,-17.1,66.13,50,96,10.29,overcast clouds
185,Mar Del Plata,AR,2022-01-09 19:36:20,-38.0023,-57.5575,83.08,1,0,10.0,clear sky
186,Taunsa,PK,2022-01-09 19:37:30,30.7048,70.6505,53.17,66,0,0.72,clear sky
187,Halifax,CA,2022-01-09 19:37:30,44.6453,-63.5724,39.25,85,100,10.0,light rain
188,La Asuncion,VE,2022-01-09 19:37:30,11.0333,-63.8628,82.13,61,13,16.11,few clouds
189,Sassandra,CI,2022-01-09 19:37:31,4.95,-6.0833,80.33,84,88,7.96,overcast clouds
190,Salalah,OM,2022-01-09 19:37:31,17.0151,54.0924,69.89,52,0,4.61,clear sky
191,Moron,AR,2022-01-09 19:37:31,-34.6534,-58.6198,91.94,42,59,5.01,broken clouds
192,Tazovskiy,RU,2022-01-09 19:37:31,67.4667,78.7,-8.93,96,100,8.77,overcast clouds
193,La Palma,US,2022-01-09 19:37:32,33.8464,-118.0467,75.16,36,20,5.01,few clouds
194,Syracuse,IT,2022-01-09 19:36:32,37.0881,15.2792,54.32,68,79,27.69,broken clouds
195,Balkhash,KZ,2022-01-09 19:37:32,46.844,74.9804,12.87,76,90,13.04,overcast clouds
196,Arenillas,ES,2022-01-09 19:37:33,41.3471,-2.8462,48.09,93,100,21.23,overcast clouds
197,Lower Hutt,NZ,2022-01-09 19:37:33,-41.2167,174.9167,68.02,81,100,16.11,overcast clouds
198,Ust-Nera,RU,2022-01-09 19:37:33,64.5667,143.2,-23.91,99,68,3.22,broken clouds
199,Victoria,HK,2022-01-09 19:34:03,22.2855,114.1577,64.38,83,9,1.01,clear sky
200,Pevek,RU,2022-01-09 19:37:34,69.7008,170.3133,-16.13,100,89,1.68,overcast clouds
201,Hohhot,CN,2022-01-09 19:36:04,40.8106,111.6522,16.09,62,0,13.42,clear sky
202,Pangai,TO,2022-01-09 19:37:34,-19.8,-174.35,78.91,78,100,14.97,overcast clouds
203,Huarmey,PE,2022-01-09 19:37:35,-10.0681,-78.1522,76.68,69,10,12.06,clear sky
204,Zheleznodorozhnyy,RU,2022-01-09 19:37:35,55.7503,38.0042,21.22,96,100,6.62,snow
205,Fairbanks,US,2022-01-09 19:35:32,64.8378,-147.7164,-20.2,72,0,9.22,clear sky
206,Hervey Bay,AU,2022-01-09 19:37:35,-25.2986,152.8535,72.01,92,34,3.0,scattered clouds
207,Tuktoyaktuk,CA,2022-01-09 19:37:36,69.4541,-133.0374,-22.0,76,20,12.66,few clouds
208,Coahuayana,MX,2022-01-09 19:37:36,18.7333,-103.6833,89.08,34,24,6.73,few clouds
209,Meadow Lake,US,2022-01-09 19:37:36,34.8014,-106.5436,48.61,44,5,2.55,clear sky
210,Qandala,SO,2022-01-09 19:37:37,11.472,49.8728,73.83,72,8,8.19,clear sky
211,Port Lincoln,AU,2022-01-09 19:37:37,-34.7333,135.8667,68.0,72,94,5.46,overcast clouds
212,Pisco,PE,2022-01-09 19:37:38,-13.7,-76.2167,82.45,57,0,19.57,clear sky
213,Kamenka,RU,2022-01-09 19:37:38,51.3223,42.7678,22.75,82,100,16.02,overcast clouds
214,Lusaka,ZM,2022-01-09 19:37:38,-15.4067,28.2871,65.1,97,100,4.27,overcast clouds
215,Balkanabat,TM,2022-01-09 19:37:39,39.5108,54.3671,47.53,59,0,9.89,clear sky
216,Andenes,NO,2022-01-09 19:37:39,69.3143,16.1194,19.38,86,75,8.05,broken clouds
217,Verkhoyansk,RU,2022-01-09 19:37:39,67.5447,133.385,-35.81,99,38,1.43,scattered clouds
218,Benguela,AO,2022-01-09 19:37:40,-12.5763,13.4055,74.05,84,68,3.8,broken clouds
219,Bengkulu,ID,2022-01-09 19:37:40,-3.8004,102.2655,75.63,90,99,3.76,light rain
220,Puerto Ayora,EC,2022-01-09 19:37:40,-0.7393,-90.3518,80.56,79,99,6.87,overcast clouds
221,Abilene,US,2022-01-09 19:37:40,32.4487,-99.7331,46.33,47,100,7.0,overcast clouds
222,Assiniboia,CA,2022-01-09 19:37:41,49.6334,-105.9845,-4.09,54,51,2.3,broken clouds
223,Aranos,,2022-01-09 19:35:01,-24.1333,19.1167,75.49,59,92,13.89,light rain
224,Norman Wells,CA,2022-01-09 19:37:41,65.282,-126.8329,-39.96,67,20,3.44,few clouds
225,Pangody,RU,2022-01-09 19:37:41,65.85,74.4859,-13.88,99,99,6.78,overcast clouds
226,Paamiut,GL,2022-01-09 19:37:42,61.994,-49.6678,12.45,86,100,24.99,light snow
227,Ancud,CL,2022-01-09 19:37:42,-41.8697,-73.8203,73.42,82,83,12.82,broken clouds
228,Shenjiamen,CN,2022-01-09 19:37:42,29.9576,122.298,45.64,73,82,9.06,broken clouds
229,Anjozorobe,MG,2022-01-09 19:37:43,-18.4,47.8667,68.32,94,100,7.16,light rain
230,Porto Novo,BJ,2022-01-09 19:37:43,6.4965,2.6036,84.02,71,45,7.43,scattered clouds
231,Sao Joao Batista,BR,2022-01-09 19:37:43,-27.2761,-48.8494,75.76,83,98,5.21,overcast clouds
232,Roma,US,2022-01-09 19:37:44,43.2128,-75.4557,40.86,93,100,5.75,overcast clouds
233,Marathon,US,2022-01-09 19:38:44,44.9,-89.7668,7.0,63,0,1.01,clear sky
234,Harindanga,IN,2022-01-09 19:38:44,22.0383,88.3214,66.18,60,0,3.8,clear sky
235,Yangjiang,CN,2022-01-09 19:38:45,21.85,111.9667,59.88,74,61,5.53,broken clouds
236,Ojinaga,MX,2022-01-09 19:38:45,29.5667,-104.4167,69.42,28,0,16.11,clear sky
237,Sobolevo,RU,2022-01-09 19:38:45,54.4299,31.8996,21.87,96,100,5.86,snow
238,Sadsalan,PH,2022-01-09 19:38:46,6.8231,124.6222,75.09,91,100,1.5,overcast clouds
239,Shimoda,JP,2022-01-09 19:38:46,34.6667,138.95,47.1,79,88,16.13,overcast clouds
240,Constitucion,CL,2022-01-09 19:38:46,-35.3333,-72.4167,68.36,66,25,7.02,scattered clouds
241,Mangrol,IN,2022-01-09 19:38:46,21.1167,70.1167,60.85,57,0,10.94,clear sky
242,Beeville,US,2022-01-09 19:38:47,28.4008,-97.7483,77.52,78,40,9.22,scattered clouds
243,Clonakilty,IE,2022-01-09 19:38:47,51.6231,-8.8706,49.21,95,100,12.95,overcast clouds
244,Nizhniy Kuranakh,RU,2022-01-09 19:34:55,58.8353,125.4869,-27.31,99,99,2.66,overcast clouds
245,Qaanaaq,GL,2022-01-09 19:38:47,77.484,-69.3632,2.21,74,95,6.38,overcast clouds
246,Rawah,IQ,2022-01-09 19:38:48,34.4816,41.9093,54.82,51,97,13.47,overcast clouds
247,Henties Bay,,2022-01-09 19:38:48,-22.116,14.2845,62.74,92,31,7.36,scattered clouds
248,Guerrero Negro,MX,2022-01-09 19:38:48,27.9769,-114.0611,65.61,52,100,4.0,overcast clouds
249,Milicz,PL,2022-01-09 19:38:45,51.5277,17.2714,33.21,73,100,5.1,overcast clouds
250,Komsomolskiy,UZ,2022-01-09 19:38:49,40.4272,71.7189,39.92,65,75,2.3,haze
251,Gimli,CA,2022-01-09 19:38:49,50.6336,-96.9907,-8.57,49,7,9.22,clear sky
252,Lakki Marwat,PK,2022-01-09 19:38:49,32.6079,70.9114,53.38,70,0,2.33,clear sky
253,Hirara,JP,2022-01-09 19:38:49,24.8,125.2833,68.56,74,100,20.11,overcast clouds
254,Ust-Kuyga,RU,2022-01-09 19:38:50,70.0167,135.6,-27.42,99,85,10.42,overcast clouds
255,Savannah Bight,HN,2022-01-09 19:38:50,16.45,-85.85,84.25,74,1,18.77,clear sky
256,Seoul,KR,2022-01-09 19:35:05,37.5683,126.9778,22.51,90,20,2.3,mist
257,Puerto Carreno,CO,2022-01-09 19:38:50,6.189,-67.4859,91.38,40,40,13.8,scattered clouds
258,Vernon,CA,2022-01-09 19:37:20,50.2581,-119.2691,33.98,80,100,1.72,overcast clouds
259,Pao De Acucar,BR,2022-01-09 19:38:51,-9.7483,-37.4367,93.54,36,92,18.39,overcast clouds
260,Upington,ZA,2022-01-09 19:38:51,-28.4478,21.2561,79.18,50,59,14.97,broken clouds
261,Xuddur,SO,2022-01-09 19:38:51,4.1213,43.8894,79.16,43,5,11.56,clear sky
262,Aden,YE,2022-01-09 19:38:52,12.7794,45.0367,76.53,71,89,17.63,overcast clouds
263,Katsuura,JP,2022-01-09 19:38:52,35.1333,140.3,47.19,88,100,20.0,overcast clouds
264,Cayenne,GF,2022-01-09 19:38:52,4.9333,-52.3333,82.44,74,75,3.0,broken clouds
265,Mogzon,RU,2022-01-09 19:38:53,51.7435,111.9606,-23.03,99,49,1.05,scattered clouds
266,Dikson,RU,2022-01-09 19:38:53,73.5069,80.5464,-4.09,97,100,12.88,overcast clouds
267,Boysun,UZ,2022-01-09 19:38:53,38.2061,67.1986,33.13,52,15,5.06,few clouds
268,Chama,CH,2022-01-09 19:38:54,47.1821,8.4636,36.79,92,75,1.14,broken clouds
269,Shirgaon,IN,2022-01-09 19:38:54,19.7,72.7,65.07,48,0,11.54,clear sky
270,Mayo,US,2022-01-09 19:34:21,38.8876,-76.5119,44.19,88,100,1.01,heavy intensity rain
271,Honiara,SB,2022-01-09 19:38:54,-9.4333,159.95,78.87,86,97,7.34,overcast clouds
272,East London,ZA,2022-01-09 19:35:50,-33.0153,27.9116,75.42,85,85,25.28,overcast clouds
273,Moose Factory,CA,2022-01-09 19:38:55,51.2585,-80.6094,-0.4,65,100,19.57,overcast clouds
274,Mahibadhoo,MV,2022-01-09 19:38:55,3.7833,72.9667,80.76,76,32,8.86,scattered clouds
275,Okhotsk,RU,2022-01-09 19:38:56,59.3833,143.3,7.02,78,100,14.94,overcast clouds
276,Tura,IN,2022-01-09 19:38:56,25.5198,90.2201,59.0,65,12,1.92,few clouds
277,Cairns,AU,2022-01-09 19:38:56,-16.9167,145.7667,79.07,94,99,13.8,light rain
278,Cockburn Town,TC,2022-01-09 19:38:57,21.4612,-71.1419,82.36,69,40,20.71,scattered clouds
279,Puerto Escondido,MX,2022-01-09 19:36:59,15.85,-97.0667,85.03,65,0,10.36,clear sky
280,Pemangkat,ID,2022-01-09 19:39:57,1.1667,108.9667,77.05,91,100,7.25,overcast clouds
281,Marsa Matruh,EG,2022-01-09 19:39:57,31.3525,27.2453,57.4,51,7,25.32,sand
282,Waipawa,NZ,2022-01-09 19:39:58,-41.4122,175.5153,63.23,71,100,8.68,overcast clouds
283,Hurghada,EG,2022-01-09 19:39:58,27.2574,33.8129,64.44,55,40,3.44,scattered clouds
284,Fortuna,US,2022-01-09 19:35:15,40.5982,-124.1573,60.93,65,0,4.0,clear sky
285,Viedma,AR,2022-01-09 19:39:58,-40.8135,-62.9967,86.22,36,76,21.68,broken clouds
286,Touros,BR,2022-01-09 19:39:59,-5.1989,-35.4608,88.7,68,100,14.83,overcast clouds
287,Moengo,SR,2022-01-09 19:39:59,5.6167,-54.4,80.64,58,99,5.37,overcast clouds
288,Quthing,LS,2022-01-09 19:39:59,-30.4,27.7003,65.3,73,73,4.81,light rain
289,Fukue,JP,2022-01-09 19:40:00,32.6881,128.8419,50.09,62,20,9.17,few clouds
290,Mendi,PG,2022-01-09 19:36:01,-6.1761,143.6513,52.79,96,95,3.56,overcast clouds
291,Camargo,MX,2022-01-09 19:40:00,27.6667,-105.1667,71.35,16,46,7.54,scattered clouds
292,Lasa,IT,2022-01-09 19:40:01,46.6166,10.7002,28.36,83,93,4.63,overcast clouds
293,Tatishchevo,RU,2022-01-09 19:40:01,51.6703,45.5953,14.25,97,100,9.31,overcast clouds
294,San Quintin,MX,2022-01-09 19:40:02,30.4833,-115.95,64.74,51,100,6.17,overcast clouds
295,Saldanha,ZA,2022-01-09 19:40:02,-33.0117,17.9442,66.25,87,96,12.01,overcast clouds
296,Gigmoto,PH,2022-01-09 19:40:02,13.7796,124.39,77.16,87,84,4.79,broken clouds
297,Aswan,EG,2022-01-09 19:40:02,24.0934,32.907,63.7,34,0,14.97,clear sky
298,Kahului,US,2022-01-09 19:40:03,20.8947,-156.47,78.84,65,0,3.44,clear sky
299,Castro,BR,2022-01-09 19:40:03,-24.7911,-50.0119,64.76,74,100,8.72,overcast clouds
300,Cabedelo,BR,2022-01-09 19:40:04,-6.9811,-34.8339,86.67,67,2,12.59,clear sky
301,Singida,TZ,2022-01-09 19:40:04,-4.8167,34.75,69.35,57,100,3.15,overcast clouds
302,Pachino,IT,2022-01-09 19:40:04,36.7186,15.0907,51.84,70,100,32.82,overcast clouds
303,Nguru,NG,2022-01-09 19:40:05,12.8791,10.4526,72.01,16,0,14.07,clear sky
304,Monywa,MM,2022-01-09 19:40:05,22.1167,95.1333,66.36,67,0,3.22,clear sky
305,Husavik,IS,2022-01-09 19:40:05,66.0449,-17.3389,39.11,85,100,20.85,overcast clouds
306,Beringovskiy,RU,2022-01-09 19:40:06,63.05,179.3167,-12.64,86,3,11.77,clear sky
307,Sestri Levante,IT,2022-01-09 19:40:06,44.2732,9.3968,47.17,57,2,3.0,clear sky
308,Kandrian,PG,2022-01-09 19:40:06,-6.2167,149.55,78.26,86,93,11.79,overcast clouds
309,Placido De Castro,BR,2022-01-09 19:40:07,-10.3353,-67.1856,83.71,64,91,4.12,overcast clouds
310,Zhangye,CN,2022-01-09 19:40:07,38.9342,100.4517,20.79,70,1,4.12,clear sky
311,Christchurch,NZ,2022-01-09 19:40:05,-43.5333,172.6333,70.92,66,45,1.99,scattered clouds
312,Manzil Salim,TN,2022-01-09 19:40:08,35.8567,8.4765,50.0,74,94,19.42,overcast clouds
313,Kirakira,SB,2022-01-09 19:40:08,-10.4544,161.9205,80.4,83,100,7.81,overcast clouds
314,Naze,JP,2022-01-09 19:40:08,28.3667,129.4833,57.72,80,100,12.73,overcast clouds
315,Malakal,SS,2022-01-09 19:40:08,9.5334,31.6605,84.87,27,27,3.67,scattered clouds
316,Maskinonge,CA,2022-01-09 19:40:09,46.2286,-73.0192,22.98,93,100,5.75,overcast clouds
317,Mukhen,RU,2022-01-09 19:40:09,48.1,136.1,-16.74,98,82,3.42,broken clouds
318,Puerto Colombia,CO,2022-01-09 19:40:10,10.9878,-74.9547,84.29,69,50,22.59,scattered clouds
319,Misratah,LY,2022-01-09 19:40:10,32.3754,15.0925,58.26,42,100,22.95,overcast clouds
320,Bilma,NE,2022-01-09 19:40:10,18.6853,12.9164,56.08,21,3,12.1,clear sky
321,Bende,NG,2022-01-09 19:41:10,5.5572,7.6368,80.51,69,0,5.95,clear sky
322,Shirokiy,RU,2022-01-09 19:41:11,49.758,129.523,-33.23,100,51,2.3,broken clouds
323,Asau,RO,2022-01-09 19:41:11,46.4333,26.4,38.39,96,96,2.64,overcast clouds
324,Atikokan,CA,2022-01-09 19:41:11,48.7555,-91.6216,-6.86,87,100,13.38,overcast clouds
325,Brownwood,US,2022-01-09 19:41:12,31.7093,-98.9912,50.2,46,100,21.74,overcast clouds
326,Belyy Yar,RU,2022-01-09 19:41:12,53.6039,91.3903,8.49,86,100,0.0,mist
327,Fagersta,SE,2022-01-09 19:41:12,60.0042,15.7932,30.79,85,100,7.43,overcast clouds
328,Maumere,ID,2022-01-09 19:41:13,-8.6199,122.2111,79.32,82,99,6.62,overcast clouds
329,Carutapera,BR,2022-01-09 19:41:13,-1.195,-46.02,78.82,87,95,2.82,heavy intensity rain
330,Kyabe,TD,2022-01-09 19:41:13,9.4515,18.9449,85.82,19,36,5.37,scattered clouds
331,Cabo Rojo,PR,2022-01-09 19:41:13,18.0866,-67.1457,85.69,65,83,3.0,broken clouds
332,Kisaran,ID,2022-01-09 19:41:14,2.9845,99.6158,72.57,98,88,2.95,overcast clouds
333,Vostok,RU,2022-01-09 19:41:14,46.4856,135.8833,-20.02,98,39,4.32,scattered clouds
334,Murray Bridge,AU,2022-01-09 19:41:14,-35.1167,139.2667,75.69,53,0,3.29,clear sky
335,Xalpatlahuac,MX,2022-01-09 19:41:15,17.4667,-98.6167,77.7,35,13,4.99,few clouds
336,Manzhouli,CN,2022-01-09 19:41:15,49.6,117.4333,-10.26,90,22,6.29,few clouds
337,Vila Velha,BR,2022-01-09 19:41:15,-20.3297,-40.2925,75.15,93,40,4.0,scattered clouds
338,Madison,US,2022-01-09 19:37:07,34.7334,-86.5667,60.66,97,100,1.01,moderate rain
339,Altamont,US,2022-01-09 19:41:16,42.2068,-121.7372,40.77,70,0,1.99,clear sky
340,Bairiki,KI,2022-01-09 19:41:16,1.3292,172.9752,78.8,89,75,8.05,broken clouds
341,Impfondo,CG,2022-01-09 19:41:16,1.6381,18.0667,79.72,47,26,1.83,scattered clouds
342,Tarauaca,BR,2022-01-09 19:41:17,-8.1614,-70.7656,78.69,93,92,4.47,overcast clouds
343,Longyearbyen,SJ,2022-01-09 19:41:17,78.2186,15.6401,24.64,93,75,6.91,light snow
344,Iquitos,PE,2022-01-09 19:41:17,-3.7481,-73.2472,91.44,58,75,9.22,broken clouds
345,Guilin,CN,2022-01-09 19:41:18,25.2819,110.2864,46.51,86,99,2.64,overcast clouds
346,Pimentel,PE,2022-01-09 19:41:18,-6.8367,-79.9342,82.69,51,0,20.71,clear sky
347,Coquimbo,CL,2022-01-09 19:41:18,-29.9533,-71.3436,71.33,56,0,12.66,clear sky
348,Honningsvag,NO,2022-01-09 19:41:19,70.9821,25.9704,28.15,69,75,13.8,broken clouds
349,Cortez,US,2022-01-09 19:41:19,37.3489,-108.5859,41.04,56,0,0.0,clear sky
350,Imbituba,BR,2022-01-09 19:41:19,-28.24,-48.6703,71.49,73,100,9.01,overcast clouds
351,Grindavik,IS,2022-01-09 19:41:20,63.8424,-22.4338,43.27,87,75,36.82,heavy intensity rain
352,Mildura,AU,2022-01-09 19:39:09,-34.2,142.15,75.16,31,0,6.91,clear sky
353,Vila Franca Do Campo,PT,2022-01-09 19:41:20,37.7167,-25.4333,61.2,80,77,6.67,broken clouds
354,Sterling,US,2022-01-09 19:41:21,39.0062,-77.4286,43.21,95,100,5.99,mist
355,Nizhniye Sergi,RU,2022-01-09 19:41:21,56.6614,59.3033,1.87,97,100,7.38,overcast clouds
356,Dingle,PH,2022-01-09 19:41:21,10.9995,122.6711,72.95,95,48,5.77,scattered clouds
357,Miri,MY,2022-01-09 19:41:21,4.4148,114.0089,77.14,94,20,1.14,few clouds
358,Chimore,BO,2022-01-09 19:41:22,-16.9833,-65.1333,79.79,87,100,2.86,moderate rain
359,Nileshwar,IN,2022-01-09 19:41:22,12.25,75.1,73.98,84,4,6.35,clear sky
360,Yaroslavskiy,RU,2022-01-09 19:41:22,44.1683,132.2072,-9.67,97,9,1.16,clear sky
361,Oxbow,CA,2022-01-09 19:41:23,49.2333,-102.1676,-4.36,77,67,7.9,broken clouds
362,Chiriguana,CO,2022-01-09 19:41:23,9.3624,-73.6031,95.7,28,47,4.38,scattered clouds
363,Belmopan,BZ,2022-01-09 19:41:24,17.25,-88.7667,86.38,56,23,8.21,few clouds
364,Bambous Virieux,MU,2022-01-09 19:41:24,-20.3428,57.7575,77.25,83,40,6.91,moderate rain
365,Flinders,AU,2022-01-09 19:41:24,-34.5833,150.8552,72.21,94,100,3.0,overcast clouds
366,Kongolo,CD,2022-01-09 19:41:25,-5.3833,27.0,72.05,94,100,0.85,overcast clouds
367,Ayorou,NE,2022-01-09 19:42:25,14.7308,0.9174,72.14,10,35,10.56,scattered clouds
368,Dunedin,NZ,2022-01-09 19:42:25,-45.8742,170.5036,58.69,92,90,2.37,overcast clouds
369,Lima,PE,2022-01-09 19:40:00,-12.0432,-77.0282,77.4,83,0,1.01,clear sky
370,Itoman,JP,2022-01-09 19:42:26,26.1247,127.6694,66.22,77,75,16.11,broken clouds
371,Tuatapere,NZ,2022-01-09 19:42:26,-46.1333,167.6833,59.83,92,87,1.81,overcast clouds
372,Presidencia Roque Saenz Pena,AR,2022-01-09 19:42:26,-26.7852,-60.4388,103.41,17,32,5.99,scattered clouds
373,Sao Jose Da Coroa Grande,BR,2022-01-09 19:42:27,-8.8978,-35.1478,82.38,67,1,9.48,clear sky
374,Dawei,MM,2022-01-09 19:42:27,14.0833,98.2,69.71,71,1,3.47,clear sky
375,Jumla,NP,2022-01-09 19:42:27,29.2747,82.1838,35.4,85,100,4.47,overcast clouds
376,Labuhan,ID,2022-01-09 19:42:28,-6.8844,112.2051,79.0,84,100,4.03,overcast clouds
377,San Carlos,VE,2022-01-09 19:42:28,9.6612,-68.5827,92.95,27,77,5.44,broken clouds
378,Lompoc,US,2022-01-09 19:39:14,34.6391,-120.4579,69.08,67,0,14.0,clear sky
379,Thinadhoo,MV,2022-01-09 19:42:28,0.5333,72.9333,81.72,76,99,9.91,overcast clouds
380,Ransang,PH,2022-01-09 19:42:29,8.9603,117.5828,77.97,84,20,6.8,few clouds
381,Kiama,AU,2022-01-09 19:42:29,-34.6833,150.8667,72.37,95,100,1.01,overcast clouds
382,Luwingu,ZM,2022-01-09 19:42:29,-10.2621,29.9271,62.58,97,84,3.2,light rain
383,Warwick,US,2022-01-09 19:42:30,41.7001,-71.4162,47.44,77,100,19.57,overcast clouds
384,Shelburne,CA,2022-01-09 19:42:30,44.0787,-80.2041,31.12,82,76,19.35,broken clouds
385,Coracao De Jesus,BR,2022-01-09 19:42:30,-16.6853,-44.365,79.52,95,100,4.52,overcast clouds
386,Uyar,RU,2022-01-09 19:42:30,55.81,94.3153,26.76,83,100,16.8,overcast clouds
387,Mangan,IN,2022-01-09 19:42:31,27.5167,88.5333,54.82,70,94,5.14,overcast clouds
388,Lagoa,PT,2022-01-09 19:42:31,39.05,-27.9833,59.49,69,100,7.38,overcast clouds
389,Nyurba,RU,2022-01-09 19:42:31,63.2842,118.3319,-27.99,96,28,5.12,scattered clouds
390,Iqaluit,CA,2022-01-09 19:42:32,63.7506,-68.5145,-25.31,74,20,10.0,few clouds
391,Ichinohe,JP,2022-01-09 19:42:32,40.2069,141.3017,22.19,93,21,3.89,few clouds
392,Tecoanapa,MX,2022-01-09 19:42:32,16.5167,-98.75,84.16,56,99,9.46,overcast clouds
393,Homer,US,2022-01-09 19:42:33,59.6425,-151.5483,17.47,63,100,8.05,overcast clouds
394,Mezen,RU,2022-01-09 19:42:33,65.8522,44.24,3.58,95,76,10.09,broken clouds
395,Floha,DE,2022-01-09 19:42:33,50.8561,13.0741,38.01,93,100,3.0,light rain
396,La Ronge,CA,2022-01-09 19:41:42,55.1001,-105.2842,-16.35,58,0,12.66,clear sky
397,Solnechnyy,RU,2022-01-09 19:42:34,50.7214,136.6319,-12.39,97,79,2.89,broken clouds
398,Bogorodskoye,RU,2022-01-09 19:42:34,56.55,37.8833,19.26,96,100,5.35,snow
399,Mehamn,NO,2022-01-09 19:42:34,71.0357,27.8492,28.58,74,100,8.01,overcast clouds
400,Griffith,US,2022-01-09 19:41:50,41.5284,-87.4237,27.09,50,0,12.66,clear sky
401,Palmer,US,2022-01-09 19:42:35,42.1584,-72.3287,41.02,71,100,5.99,overcast clouds
402,Mwandiga,TZ,2022-01-09 19:42:35,-4.83,29.6581,73.4,81,87,2.8,overcast clouds
403,Kumbo,CM,2022-01-09 19:42:35,6.2,10.6667,65.8,38,73,5.12,broken clouds
404,Kuusamo,FI,2022-01-09 19:42:35,65.9667,29.1833,-5.76,84,20,8.05,few clouds
405,Whyalla,AU,2022-01-09 19:42:36,-33.0333,137.5833,62.49,63,3,4.61,clear sky
406,Mahon,ES,2022-01-09 19:42:36,39.8885,4.2658,54.16,76,20,6.91,few clouds
407,Cidreira,BR,2022-01-09 19:42:36,-30.1811,-50.2056,75.15,66,67,16.84,broken clouds
408,Bonoua,CI,2022-01-09 19:42:37,5.2741,-3.595,83.82,82,4,6.2,clear sky
409,Los Llanos De Aridane,ES,2022-01-09 19:42:37,28.6585,-17.9182,64.15,45,0,1.99,clear sky
410,Muisne,EC,2022-01-09 19:42:37,0.6,-80.0333,84.31,75,100,7.49,overcast clouds
411,Ahuimanu,US,2022-01-09 19:42:38,21.4447,-157.8378,76.78,78,20,0.0,few clouds
412,Sivas,TR,2022-01-09 19:42:38,39.7916,37.0019,36.23,93,75,19.57,broken clouds
413,Gat,IL,2022-01-09 19:40:18,31.61,34.7642,58.41,22,94,11.07,overcast clouds
414,Samarai,PG,2022-01-09 19:42:38,-10.6167,150.6667,79.48,83,96,6.46,overcast clouds
415,Quatre Cocos,MU,2022-01-09 19:43:39,-20.2078,57.7625,77.11,84,100,5.97,moderate rain
416,Makakilo City,US,2022-01-09 19:41:25,21.3469,-158.0858,75.61,78,0,4.61,clear sky
417,Baker City,US,2022-01-09 19:41:40,44.7749,-117.8344,37.13,75,0,18.41,clear sky
418,Zaysan,KZ,2022-01-09 19:43:39,47.4667,84.8667,9.34,88,99,2.64,light snow
419,Axim,GH,2022-01-09 19:43:39,4.8699,-2.2405,81.54,79,58,7.2,broken clouds
420,Noyabrsk,RU,2022-01-09 19:43:40,63.1994,75.4507,-8.48,99,86,12.01,overcast clouds
421,Gazanjyk,TM,2022-01-09 19:43:40,39.2446,55.5154,44.46,70,0,10.65,clear sky
422,Zitiste,RS,2022-01-09 19:43:40,45.485,20.5497,32.11,91,73,3.62,broken clouds
423,Mizdah,LY,2022-01-09 19:43:41,31.4451,12.9801,47.82,37,88,21.7,overcast clouds
424,Pangani,TZ,2022-01-09 19:43:41,-5.4333,38.9667,79.43,83,100,16.13,overcast clouds
425,Mount Gambier,AU,2022-01-09 19:43:41,-37.8333,140.7667,51.71,93,36,3.44,scattered clouds
426,Umm Kaddadah,SD,2022-01-09 19:43:41,13.6017,26.6876,79.39,22,11,7.45,few clouds
427,Novobirilyussy,RU,2022-01-09 19:43:42,56.9514,90.6661,26.46,89,100,11.61,light snow
428,Burnie,AU,2022-01-09 19:43:42,-41.0667,145.9167,62.94,98,89,5.93,overcast clouds
429,Chimoio,MZ,2022-01-09 19:43:42,-19.1164,33.4833,73.26,83,75,2.77,broken clouds
430,Broome,US,2022-01-09 19:43:43,42.2506,-75.833,37.06,79,100,1.99,mist
431,Apiai,BR,2022-01-09 19:43:43,-24.5094,-48.8425,65.19,71,99,5.41,overcast clouds
432,Funadhoo,MV,2022-01-09 19:43:43,6.15,73.2667,80.98,75,88,10.07,overcast clouds
433,Nemuro,JP,2022-01-09 19:43:05,43.3236,145.575,22.39,72,31,8.5,scattered clouds
434,Waw,SS,2022-01-09 19:43:44,7.7029,27.9953,84.45,26,82,3.18,broken clouds
435,Lithakia,GR,2022-01-09 19:39:18,37.7167,20.8333,56.59,64,100,16.04,overcast clouds
436,Westport,US,2022-01-09 19:39:58,41.1415,-73.3579,43.81,75,100,1.99,overcast clouds
437,Rocha,UY,2022-01-09 19:43:44,-34.4833,-54.3333,83.77,41,0,18.88,clear sky
438,Kununurra,AU,2022-01-09 19:43:45,-15.7667,128.7333,80.58,94,94,4.61,overcast clouds
439,Santa Leopoldina,BR,2022-01-09 19:43:45,-20.1006,-40.5297,74.82,94,99,1.72,light rain
440,Tabou,CI,2022-01-09 19:43:45,4.423,-7.3528,80.51,82,82,9.78,broken clouds
441,Montepuez,MZ,2022-01-09 19:43:46,-13.1256,38.9997,69.64,97,100,2.46,moderate rain
442,Chardara,KZ,2022-01-09 19:43:46,41.2547,67.9692,38.3,66,100,7.18,overcast clouds
443,Dauphin,CA,2022-01-09 19:43:46,51.1494,-100.0502,-11.06,64,0,21.85,clear sky
444,Baraboo,US,2022-01-09 19:43:47,43.4711,-89.7443,12.34,57,0,1.01,clear sky
445,Sinnamary,GF,2022-01-09 19:43:47,5.3833,-52.95,79.25,74,99,8.37,overcast clouds
446,Carndonagh,IE,2022-01-09 19:43:47,55.25,-7.2667,44.22,93,88,4.97,overcast clouds
447,Predivinsk,RU,2022-01-09 19:43:48,57.0669,93.4378,26.15,90,100,11.12,light snow
448,Tilichiki,RU,2022-01-09 19:43:48,60.4667,166.1,-5.15,92,97,7.38,overcast clouds
449,Chuy,UY,2022-01-09 19:43:48,-33.6971,-53.4616,78.17,53,0,17.2,clear sky
450,Santa Clara,CU,2022-01-09 19:43:48,22.4,-79.9667,84.97,57,40,16.11,scattered clouds
451,Meulaboh,ID,2022-01-09 19:43:49,4.1363,96.1285,74.79,93,100,3.24,overcast clouds
452,Havre-Saint-Pierre,CA,2022-01-09 19:43:49,50.2334,-63.5986,23.59,93,100,14.97,overcast clouds
453,Macheng,CN,2022-01-09 19:43:49,31.1783,115.0319,43.56,87,100,0.94,overcast clouds
454,Manthani,IN,2022-01-09 19:43:50,18.65,79.6667,70.75,79,90,5.5,overcast clouds
455,Camacha,PT,2022-01-09 19:43:50,33.0833,-16.3333,60.22,88,40,11.5,scattered clouds
456,Kanevskaya,RU,2022-01-09 19:43:50,46.0849,38.9596,38.12,78,100,11.03,overcast clouds
457,Panzhihua,CN,2022-01-09 19:43:50,26.5851,101.7128,47.52,78,0,1.72,clear sky
458,Ust-Maya,RU,2022-01-09 19:43:51,60.4167,134.5333,-36.44,99,100,0.51,overcast clouds
459,Terrak,NO,2022-01-09 19:43:51,65.087,12.3715,30.07,86,8,10.16,clear sky
460,Jinchang,CN,2022-01-09 19:43:51,38.4953,102.1739,20.82,74,4,1.19,clear sky
461,Bereda,ES,2022-01-09 19:43:52,43.2686,-7.5406,58.41,100,100,5.86,overcast clouds
462,San Cristobal,VE,2022-01-09 19:43:52,7.7669,-72.225,71.78,60,77,3.36,broken clouds
463,Hualmay,PE,2022-01-09 19:43:52,-11.0964,-77.6139,75.7,69,9,11.7,clear sky
464,Te Anau,NZ,2022-01-09 19:44:53,-45.4167,167.7167,60.44,78,87,0.04,overcast clouds
465,Songkhla,TH,2022-01-09 19:44:53,6.8333,100.6667,75.25,92,70,4.68,broken clouds
466,Puerto Suarez,BO,2022-01-09 19:44:53,-18.95,-57.8,95.56,52,20,9.22,few clouds
467,Buala,SB,2022-01-09 19:44:54,-8.145,159.5921,79.27,85,87,7.18,light rain
468,Port Hedland,AU,2022-01-09 19:44:54,-20.3167,118.5667,80.65,83,14,8.05,few clouds
469,Ciudad Bolivar,VE,2022-01-09 19:44:54,8.1222,-63.5497,90.27,31,20,11.27,few clouds
470,Makungu,TZ,2022-01-09 19:44:55,-8.7333,35.2833,64.6,88,100,3.83,light rain
471,Kloulklubed,PW,2022-01-09 19:44:55,7.0419,134.2556,73.9,74,100,9.06,overcast clouds
472,Pitangui,BR,2022-01-09 19:44:55,-19.6828,-44.8903,68.31,98,100,2.89,heavy intensity rain
473,Toora-Khem,RU,2022-01-09 19:44:55,52.4675,96.11,-11.25,100,100,0.85,overcast clouds
474,Coffs Harbour,AU,2022-01-09 19:44:56,-30.3,153.1333,71.13,96,75,0.0,broken clouds
475,Ilulissat,GL,2022-01-09 19:44:56,69.2167,-51.1,15.82,79,75,3.44,broken clouds
476,Petropavlovsk-Kamchatskiy,RU,2022-01-09 19:44:56,53.0452,158.6483,28.99,100,100,4.47,heavy shower snow
477,Bismarck,US,2022-01-09 19:44:57,46.8083,-100.7837,7.21,61,100,3.0,overcast clouds
478,Matagami,CA,2022-01-09 19:44:57,49.7502,-77.6328,8.71,72,100,18.41,light snow
479,Matay,EG,2022-01-09 19:44:57,28.419,30.7792,53.8,43,11,7.76,few clouds
480,Khorramshahr,IR,2022-01-09 19:44:58,30.4397,48.1664,53.55,87,8,4.61,mist
481,Gornopravdinsk,RU,2022-01-09 19:44:58,60.05,69.9,3.74,92,12,8.75,few clouds
482,Batagay,RU,2022-01-09 19:44:58,67.6333,134.6333,-31.72,97,15,4.68,few clouds
483,Kissidougou,GN,2022-01-09 19:44:59,9.1848,-10.0999,77.25,22,28,4.9,scattered clouds
484,Muravlenko,RU,2022-01-09 19:44:59,63.7898,74.523,-9.42,99,80,12.21,broken clouds
485,Romny,UA,2022-01-09 19:44:59,50.751,33.4747,30.96,98,100,7.72,light snow
486,Madimba,TZ,2022-01-09 19:45:00,-10.4,40.3333,82.35,78,87,13.4,overcast clouds
487,Verkhnevilyuysk,RU,2022-01-09 19:45:00,63.4453,120.3167,-31.59,97,6,3.98,clear sky
488,Zhengjiatun,CN,2022-01-09 19:45:00,43.5064,123.5064,4.68,82,100,6.93,overcast clouds
489,Pochutla,MX,2022-01-09 19:45:00,15.7432,-96.4661,87.82,42,30,7.61,scattered clouds
490,Mishelevka,RU,2022-01-09 19:45:01,52.8575,103.1719,-1.53,95,54,7.63,broken clouds
491,Alterosa,BR,2022-01-09 19:45:01,-21.2492,-46.1431,65.16,96,100,7.09,overcast clouds
492,Amapa,BR,2022-01-09 19:45:02,1.0,-52.0,78.3,80,100,2.06,overcast clouds
493,Atlantic Beach,US,2022-01-09 19:45:02,30.3344,-81.3987,82.62,61,0,17.27,clear sky
494,Mosquera,CO,2022-01-09 19:45:03,4.7059,-74.2302,66.29,55,20,13.8,few clouds
495,Amga,RU,2022-01-09 19:45:03,60.8953,131.9608,-34.2,97,96,2.06,overcast clouds
496,Lidkoping,SE,2022-01-09 19:45:03,58.5052,13.1577,34.41,2,100,12.19,overcast clouds
497,San Felipe,VE,2022-01-09 19:45:04,10.3399,-68.7425,81.68,50,91,10.31,overcast clouds
498,Tawau,MY,2022-01-09 19:45:04,4.2498,117.8871,75.33,88,100,3.0,overcast clouds
499,Shumikha,RU,2022-01-09 19:45:04,55.2261,63.2961,-4.05,97,6,7.27,clear sky
500,Eyl,SO,2022-01-09 19:45:05,7.9803,49.8164,74.88,73,7,17.4,clear sky
501,Bac Lieu,VN,2022-01-09 19:45:05,9.285,105.7244,75.38,86,33,10.85,scattered clouds
502,Perth,AU,2022-01-09 19:40:29,-31.9333,115.8333,64.58,53,0,9.22,clear sky
503,Altamira,BR,2022-01-09 19:45:05,-3.2033,-52.2064,77.09,94,100,2.3,moderate rain
504,Pitimbu,BR,2022-01-09 19:45:06,-7.4706,-34.8086,86.59,67,2,11.52,clear sky
505,Diamantino,BR,2022-01-09 19:45:06,-14.4086,-56.4461,81.14,82,100,7.14,overcast clouds
506,Tigre,AR,2022-01-09 19:45:06,-34.426,-58.5796,91.2,44,0,5.75,clear sky
507,Suez,EG,2022-01-09 19:41:22,29.9737,32.5263,56.95,39,0,6.15,clear sky
508,Uvalde,US,2022-01-09 19:46:07,29.3669,-99.767,71.31,28,0,8.05,clear sky
509,Eureka,US,2022-01-09 19:46:07,40.8021,-124.1637,62.2,71,0,2.75,clear sky
510,Araguari,BR,2022-01-09 19:46:08,-18.6472,-48.1872,70.09,93,79,4.54,heavy intensity rain
511,Raudeberg,NO,2022-01-09 19:46:08,61.9875,5.1352,36.27,58,23,3.0,few clouds
512,Olavarria,AR,2022-01-09 19:46:08,-36.8927,-60.3225,97.27,12,43,9.01,scattered clouds
513,Waddan,LY,2022-01-09 19:46:09,29.1614,16.139,50.7,47,4,8.32,clear sky
514,Lakota,CI,2022-01-09 19:46:09,5.8528,-5.6883,78.71,75,42,5.86,scattered clouds
515,Zhigalovo,RU,2022-01-09 19:46:09,54.8097,105.1578,-24.47,99,38,2.82,scattered clouds
516,Srivardhan,IN,2022-01-09 19:46:10,18.0333,73.0167,68.4,74,0,9.78,clear sky
517,Hammerfest,NO,2022-01-09 19:41:31,70.6634,23.6821,24.53,73,20,0.0,few clouds
518,Winslow,US,2022-01-09 19:46:10,35.0242,-110.6974,46.96,44,0,1.01,clear sky
519,Saint Anthony,US,2022-01-09 19:46:11,45.0205,-93.218,7.25,55,0,4.0,clear sky
520,Sao Joao Da Barra,BR,2022-01-09 19:46:11,-21.6403,-41.0511,71.69,96,100,7.02,light rain
521,Pangnirtung,CA,2022-01-09 19:46:11,66.1451,-65.7125,-18.4,76,20,3.44,few clouds
522,Surin,TH,2022-01-09 19:46:12,14.8818,103.4936,69.91,57,15,3.71,few clouds
523,Fremont,US,2022-01-09 19:45:02,37.5483,-121.9886,63.63,74,0,7.0,clear sky
524,Taguatinga,BR,2022-01-09 19:46:12,-12.3857,-46.5711,72.34,93,100,3.13,overcast clouds
525,Tabas,IR,2022-01-09 19:46:12,33.5959,56.9244,47.01,39,0,1.52,clear sky
526,Quepos,CR,2022-01-09 19:46:13,9.4236,-84.1652,90.7,66,4,5.79,clear sky
527,Clyde River,CA,2022-01-09 19:46:13,70.4692,-68.5914,-7.37,77,100,27.63,snow
528,Conway,US,2022-01-09 19:43:27,35.0887,-92.4421,49.98,69,100,7.0,overcast clouds
529,Anloga,GH,2022-01-09 19:46:13,5.7947,0.8973,84.42,75,73,10.65,broken clouds
530,Port-Cartier,CA,2022-01-09 19:46:14,50.0334,-66.8654,21.74,95,100,10.83,snow
531,Cabrero,CL,2022-01-09 19:46:14,-37.0333,-72.4,80.55,32,0,13.65,clear sky
532,Colares,PT,2022-01-09 19:46:14,38.7992,-9.4469,57.79,72,75,3.0,broken clouds
533,Puerto Leguizamo,CO,2022-01-09 19:46:15,-0.1934,-74.7819,95.13,32,99,4.59,overcast clouds
534,Ilinskoye-Khovanskoye,RU,2022-01-09 19:46:15,56.9718,39.7684,20.53,96,100,7.65,snow
535,Rorvik,NO,2022-01-09 19:46:15,64.8621,11.2373,28.51,64,0,11.5,clear sky
536,Grand Baie,MU,2022-01-09 19:46:16,-20.0182,57.5802,77.47,86,100,4.0,overcast clouds
537,Narsaq,GL,2022-01-09 19:46:16,60.9167,-46.05,16.02,90,100,2.13,overcast clouds
538,Woodstock,CA,2022-01-09 19:46:16,43.1334,-80.7497,33.21,77,100,21.27,overcast clouds
539,Uruzgan,AF,2022-01-09 19:46:17,32.8333,66.0,34.12,53,1,3.24,clear sky
540,Basco,PH,2022-01-09 19:46:17,20.4487,121.9702,74.01,74,54,16.11,broken clouds
541,Sola,VU,2022-01-09 19:46:17,-13.8833,167.55,82.44,74,100,13.31,overcast clouds
542,Tanout,NE,2022-01-09 19:46:18,14.9709,8.8879,63.43,17,1,16.22,clear sky
543,Pozo Colorado,PY,2022-01-09 19:46:18,-23.4923,-58.7972,100.8,22,34,10.65,scattered clouds
544,Xian,CN,2022-01-09 19:45:19,34.2583,108.9286,36.41,81,100,8.16,overcast clouds
545,Boljevac,RS,2022-01-09 19:46:18,43.8303,21.9531,33.85,99,100,3.2,light snow
546,Kutum,SD,2022-01-09 19:46:19,14.2,24.6667,74.03,24,49,4.32,scattered clouds
547,Itarema,BR,2022-01-09 19:46:19,-2.9248,-39.9167,82.58,64,100,13.13,overcast clouds
548,Lamar,US,2022-01-09 19:46:20,33.6668,-95.5836,50.99,76,100,19.57,overcast clouds
549,Iwata,JP,2022-01-09 19:46:20,34.7,137.85,45.01,69,75,1.99,broken clouds
550,Mata,PT,2022-01-09 19:46:20,40.683,-7.4592,52.93,98,100,4.72,overcast clouds
551,Nizwa,OM,2022-01-09 19:46:20,22.9333,57.5333,62.64,48,0,5.26,clear sky
552,Saint Simons,US,2022-01-09 19:47:21,31.1352,-81.3901,80.02,57,0,8.05,clear sky
553,Mareeba,AU,2022-01-09 19:47:21,-17.0,145.4333,75.92,94,91,3.11,overcast clouds
554,Kilindoni,TZ,2022-01-09 19:47:22,-7.9139,39.6668,82.74,78,89,14.9,overcast clouds
555,Tombouctou,ML,2022-01-09 19:47:22,20.0,-3.0,61.81,14,91,11.61,overcast clouds
556,Porto Belo,BR,2022-01-09 19:47:22,-27.1578,-48.5531,73.69,77,99,11.36,overcast clouds
557,Aguilas,ES,2022-01-09 19:47:23,37.4063,-1.5829,57.2,49,2,7.02,clear sky
558,Waingapu,ID,2022-01-09 19:47:23,-9.6567,120.2641,78.69,82,100,3.85,overcast clouds
559,Grand Island,US,2022-01-09 19:45:14,40.925,-98.342,33.3,34,0,5.01,clear sky
560,New Cumnock,GB,2022-01-09 19:47:23,55.3956,-4.1846,42.53,92,99,5.75,overcast clouds
561,Ballina,AU,2022-01-09 19:47:24,-28.8667,153.5667,68.77,96,40,1.14,scattered clouds
562,Chicama,PE,2022-01-09 19:47:24,-7.8447,-79.1469,72.14,58,63,11.63,broken clouds
563,Puerto Narino,CO,2022-01-09 19:47:24,-3.7703,-70.3831,78.75,85,100,1.57,overcast clouds
564,Shakawe,BW,2022-01-09 19:47:25,-18.3667,21.85,67.23,94,100,5.06,light rain
565,Bandarbeyla,SO,2022-01-09 19:47:25,9.4942,50.8122,76.33,67,14,21.52,few clouds
566,Vestmannaeyjar,IS,2022-01-09 19:47:25,63.4427,-20.2734,43.68,83,100,48.92,heavy intensity rain
567,Umm Lajj,SA,2022-01-09 19:47:26,25.0213,37.2685,77.58,50,100,7.74,overcast clouds
568,Jalu,LY,2022-01-09 19:47:26,29.0331,21.5482,52.83,51,0,11.12,clear sky
569,Wakkanai,JP,2022-01-09 19:43:04,45.4094,141.6739,27.46,63,100,13.56,overcast clouds
570,Marawi,PH,2022-01-09 19:47:26,7.9986,124.2928,65.64,96,93,1.25,overcast clouds
571,Kanniyakumari,IN,2022-01-09 19:47:27,8.0833,77.5667,77.16,79,100,13.85,overcast clouds
572,Chandla,IN,2022-01-09 19:47:27,25.0833,80.2,59.56,89,30,1.79,scattered clouds
573,Margate,GB,2022-01-09 19:47:27,51.3813,1.3862,41.95,84,11,7.63,few clouds
574,Buraydah,SA,2022-01-09 19:47:28,26.326,43.975,63.05,36,20,10.94,few clouds
575,Alice Springs,AU,2022-01-09 19:43:58,-23.7,133.8833,72.95,25,0,0.0,clear sky
576,Aripuana,BR,2022-01-09 19:47:28,-9.1667,-60.6333,78.91,90,59,4.16,broken clouds
577,Casper,US,2022-01-09 19:47:29,42.8666,-106.3131,39.51,37,0,25.32,clear sky
578,Zhoucheng,CN,2022-01-09 19:47:29,35.9122,116.3117,38.55,73,100,2.71,overcast clouds
579,Ilhabela,BR,2022-01-09 19:47:29,-23.7781,-45.3581,71.74,88,100,2.59,moderate rain
580,Portland,US,2022-01-09 19:45:16,45.5234,-122.6762,52.09,69,11,11.01,few clouds
581,Bredy,RU,2022-01-09 19:47:30,52.4153,60.3411,-3.77,95,9,6.35,clear sky
582,Avera,US,2022-01-09 19:47:30,33.194,-82.5271,72.91,61,22,13.18,few clouds
583,Majene,ID,2022-01-09 19:47:31,-3.5403,118.9707,77.56,81,74,5.03,broken clouds
584,Lichuan,CN,2022-01-09 19:47:31,30.3,108.85,37.45,92,100,1.05,overcast clouds
585,Mercedes,AR,2022-01-09 19:47:31,-34.6515,-59.4307,92.86,14,3,8.75,clear sky
586,Kopychyntsi,UA,2022-01-09 19:47:32,49.1044,25.9103,27.55,89,52,3.04,broken clouds
587,Praia,CV,2022-01-09 19:47:32,14.9215,-23.5087,73.94,73,0,9.22,clear sky
588,Yatou,CN,2022-01-09 19:47:32,37.15,122.3833,30.96,71,99,4.12,overcast clouds
589,San-Pedro,CI,2022-01-09 19:47:10,4.7485,-6.6363,80.71,83,94,8.43,overcast clouds
590,Machado,BR,2022-01-09 19:47:33,-21.6747,-45.9197,73.17,96,100,4.56,overcast clouds
591,Pestisu Mic,RO,2022-01-09 19:47:33,45.8,22.8833,33.78,94,98,2.06,overcast clouds
592,Dobrusevo,MK,2022-01-09 19:47:33,41.1686,21.4825,42.67,82,89,3.09,overcast clouds
593,Santiago Del Estero,AR,2022-01-09 19:47:34,-27.7951,-64.2615,100.8,15,0,6.22,clear sky
594,Garowe,SO,2022-01-09 19:47:34,8.4054,48.4845,68.43,67,7,16.42,clear sky
595,Visnes,NO,2022-01-09 19:47:34,59.3556,5.2242,40.21,56,75,8.05,broken clouds
596,Taldan,RU,2022-01-09 19:47:35,53.6667,124.8,-19.8,95,26,3.15,scattered clouds
597,Sokyryany,UA,2022-01-09 19:48:35,48.4475,27.4168,32.92,90,100,5.28,overcast clouds
598,Yerbogachen,RU,2022-01-09 19:48:35,61.2767,108.0108,-9.17,81,100,9.01,overcast clouds
599,Lere,NG,2022-01-09 19:48:36,10.387,8.5726,74.03,21,0,7.76,clear sky
600,Mount Isa,AU,2022-01-09 19:48:36,-20.7333,139.5,80.37,29,19,3.44,few clouds
601,Constantine,DZ,2022-01-09 19:48:36,36.365,6.6147,49.41,71,75,10.36,broken clouds
602,Weihe,CN,2022-01-09 19:48:37,32.9952,105.3247,33.75,84,62,6.78,broken clouds
603,Balao,EC,2022-01-09 19:48:37,-2.9167,-79.8167,85.91,61,92,9.82,overcast clouds
604,Sao Gabriel Da Cachoeira,BR,2022-01-09 19:48:37,-0.1303,-67.0892,89.4,62,40,6.91,scattered clouds
605,Talnakh,RU,2022-01-09 19:48:38,69.4865,88.3972,-0.8,97,100,2.91,light snow
606,Haizhou,CN,2022-01-09 19:48:38,34.5817,119.1289,36.05,78,100,0.92,overcast clouds
607,Codajas,BR,2022-01-09 19:48:38,-3.8367,-62.0569,78.6,71,99,2.13,overcast clouds
608,Orumiyeh,IR,2022-01-09 19:48:38,37.5527,45.0761,26.15,80,2,4.61,clear sky
609,Oistins,BB,2022-01-09 19:48:39,13.0667,-59.5333,82.49,61,75,20.71,broken clouds
610,Flin Flon,CA,2022-01-09 19:48:39,54.7682,-101.865,-16.76,58,0,11.5,clear sky
611,Rio Grande,BR,2022-01-09 19:48:39,-32.035,-52.0986,82.51,64,0,19.8,clear sky
612,Byron Bay,AU,2022-01-09 19:48:40,-28.65,153.6167,72.88,81,19,5.1,few clouds
613,Amahai,ID,2022-01-09 19:48:40,-3.3333,128.9167,78.22,85,100,4.09,overcast clouds
614,Kang,BW,2022-01-09 19:48:40,-23.6752,22.7876,77.88,49,94,9.8,overcast clouds
615,Angoche,MZ,2022-01-09 19:48:41,-16.2325,39.9086,75.78,95,100,10.11,heavy intensity rain
616,Ravar,IR,2022-01-09 19:48:41,31.2656,56.8055,44.96,41,0,1.57,clear sky
617,Cap Malheureux,MU,2022-01-09 19:48:41,-19.9842,57.6142,77.49,86,100,4.0,overcast clouds
618,Elko,US,2022-01-09 19:45:20,41.0002,-115.5012,32.02,82,6,3.74,clear sky
619,Boa Vista,BR,2022-01-09 19:46:00,2.8197,-60.6733,93.18,31,40,10.36,scattered clouds
620,Paris,FR,2022-01-09 19:47:21,48.8534,2.3488,41.85,95,0,2.3,clear sky
621,Abu Dhabi,AE,2022-01-09 19:48:42,24.4667,54.3667,67.96,71,0,2.3,clear sky
622,Souillac,MU,2022-01-09 19:48:43,-20.5167,57.5167,77.38,83,40,6.91,moderate rain
623,Damghan,IR,2022-01-09 19:48:43,36.1683,54.348,38.7,45,0,4.03,clear sky
624,Lalawigan,PH,2022-01-09 19:48:44,11.5892,125.4697,75.83,89,95,3.13,overcast clouds
625,Abu Samrah,SY,2022-01-09 19:48:44,35.3029,37.1841,52.65,69,4,10.4,clear sky
626,Mikhaylovka,RU,2022-01-09 19:48:44,50.06,43.2379,27.79,79,100,15.41,overcast clouds
627,Manaus,BR,2022-01-09 19:48:45,-3.1019,-60.025,84.7,70,75,4.61,broken clouds
628,Payson,US,2022-01-09 19:48:45,40.0444,-111.7321,40.41,56,40,0.0,scattered clouds
629,Dubbo,AU,2022-01-09 19:48:45,-32.25,148.6167,71.73,88,100,10.36,overcast clouds
630,Aras,ES,2022-01-09 19:48:46,42.5617,-2.356,50.41,87,75,19.57,broken clouds
631,Durant,US,2022-01-09 19:48:46,33.994,-96.3708,51.12,56,0,20.71,clear sky
632,Kaeo,NZ,2022-01-09 19:48:46,-35.1,173.7833,68.32,95,100,2.21,overcast clouds
633,Ostrovnoy,RU,2022-01-09 19:48:47,68.0531,39.5131,27.3,64,100,19.57,light snow
634,Blackfoot,US,2022-01-09 19:48:47,43.1905,-112.345,30.54,85,45,5.88,scattered clouds
635,Plymouth,US,2022-01-09 19:47:56,41.8334,-70.8328,47.66,77,100,5.99,overcast clouds
636,Cabra,ES,2022-01-09 19:48:47,37.4725,-4.4421,51.39,78,2,0.72,clear sky
637,Labytnangi,RU,2022-01-09 19:48:48,66.6572,66.4183,-3.17,92,69,8.32,broken clouds
638,Pacific Grove,US,2022-01-09 19:48:48,36.6177,-121.9166,66.16,57,0,1.99,clear sky
639,Lorengau,PG,2022-01-09 19:48:49,-2.0226,147.2712,79.88,80,95,7.0,overcast clouds
640,San Policarpo,PH,2022-01-09 19:48:49,12.1791,125.5072,77.31,83,78,1.9,broken clouds
641,Aken,DE,2022-01-09 19:48:49,50.7766,6.0834,38.14,92,14,7.2,few clouds
642,Hailin,CN,2022-01-09 19:48:50,44.5833,129.4167,-11.09,98,32,1.45,scattered clouds
643,Lagos,NG,2022-01-09 19:48:50,6.5833,3.75,84.52,75,39,5.97,scattered clouds
644,Lata,PT,2022-01-09 19:48:50,40.1629,-8.3327,56.05,99,100,2.91,overcast clouds
645,Linhares,BR,2022-01-09 19:49:51,-19.3911,-40.0722,79.11,88,100,3.22,overcast clouds
646,Kandi,BJ,2022-01-09 19:49:51,11.1342,2.9386,78.58,18,3,5.26,clear sky
647,Baoding,CN,2022-01-09 19:49:51,38.8511,115.4903,31.48,74,100,6.08,overcast clouds
648,Sharjah,AE,2022-01-09 19:49:52,25.3573,55.4033,67.98,71,0,3.44,clear sky
649,Aviles,ES,2022-01-09 19:45:16,43.5547,-5.9248,59.77,89,75,14.0,light intensity drizzle
650,Krasnoselkup,RU,2022-01-09 19:49:52,65.7,82.4667,-3.1,98,100,9.13,overcast clouds
651,Athmallik,IN,2022-01-09 19:49:53,20.7219,84.5348,63.64,62,2,3.18,clear sky
652,Porto Walter,BR,2022-01-09 19:49:53,-8.2686,-72.7439,91.76,42,63,5.79,broken clouds
653,Pinos,MX,2022-01-09 19:49:54,22.3,-101.5667,65.98,11,0,3.13,clear sky
654,Olinda,BR,2022-01-09 19:49:54,-8.0089,-34.8553,85.73,66,40,10.36,scattered clouds
655,Gogrial,SS,2022-01-09 19:49:54,8.5332,28.1004,84.9,25,79,2.89,broken clouds
656,Coruripe,BR,2022-01-09 19:49:55,-10.1256,-36.1756,82.13,69,89,13.73,overcast clouds
657,Rosarito,MX,2022-01-09 19:48:07,32.3333,-117.0333,74.91,40,30,1.99,scattered clouds
658,Catalina Foothills,US,2022-01-09 19:49:55,32.2979,-110.9187,70.12,34,0,3.0,clear sky
659,Lethem,GY,2022-01-09 19:49:56,3.3803,-59.7968,90.73,34,96,10.18,overcast clouds
660,Samana,DO,2022-01-09 19:49:56,19.2056,-69.3369,84.42,70,40,6.91,scattered clouds
661,Harper,LR,2022-01-09 19:49:56,4.375,-7.7169,80.35,81,50,10.16,scattered clouds
662,Ararat,AM,2022-01-09 19:49:57,39.8317,44.7049,34.7,70,8,1.34,clear sky
663,Churapcha,RU,2022-01-09 19:49:57,62.0025,132.4325,-50.53,100,73,1.92,broken clouds
664,Oskemen,KZ,2022-01-09 19:49:57,49.9565,82.6119,19.36,73,100,8.95,overcast clouds
665,Mitsamiouli,KM,2022-01-09 19:49:57,-11.3847,43.2844,82.44,72,76,5.48,broken clouds
666,Tornio,FI,2022-01-09 19:49:58,65.8481,24.1466,-7.58,98,19,3.27,few clouds
667,Obudovac,BA,2022-01-09 19:49:58,44.965,18.6122,33.75,92,100,3.49,overcast clouds
668,Ketchikan,US,2022-01-09 19:49:59,55.3422,-131.6461,44.58,87,100,26.46,mist
669,Khabary,RU,2022-01-09 19:49:59,53.6259,79.5345,11.8,95,93,10.31,overcast clouds
670,Acarau,BR,2022-01-09 19:49:59,-2.8856,-40.12,82.89,64,100,13.67,overcast clouds
671,Swan Hill,AU,2022-01-09 19:50:00,-35.3378,143.5544,71.37,39,1,7.99,clear sky
672,Aksu,CN,2022-01-09 19:50:00,41.1231,80.2644,23.72,49,98,0.96,overcast clouds
673,Puerto Del Rosario,ES,2022-01-09 19:49:25,28.5004,-13.8627,64.15,55,0,9.22,clear sky
674,Antofagasta,CL,2022-01-09 19:46:37,-23.65,-70.4,72.68,71,85,7.36,overcast clouds
675,Nisia Floresta,BR,2022-01-09 19:50:01,-6.0911,-35.2086,88.61,60,91,11.92,overcast clouds
676,Matiri,TZ,2022-01-09 19:50:01,-10.75,34.9,64.04,90,100,1.05,overcast clouds
677,Sipoo,FI,2022-01-09 19:50:02,60.3775,25.2691,22.84,92,100,5.75,overcast clouds
678,La Chapelle-Sur-Erdre,FR,2022-01-09 19:50:02,47.2958,-1.5531,48.92,93,100,1.99,light intensity drizzle
679,Mantua,IT,2022-01-09 19:50:02,45.1667,10.7833,40.51,91,100,1.39,overcast clouds
680,Ventspils,LV,2022-01-09 19:50:03,57.3894,21.5606,30.13,100,100,0.0,mist
681,Buchanan,LR,2022-01-09 19:50:03,5.8808,-10.0467,84.16,83,69,7.99,broken clouds
682,Vasilevo,MK,2022-01-09 19:50:03,41.4761,22.6417,47.61,92,100,4.79,overcast clouds
683,Neryungri,RU,2022-01-09 19:50:03,56.6709,124.6491,-35.25,100,98,3.22,overcast clouds
684,Nehe,CN,2022-01-09 19:50:04,48.4833,124.8333,-3.01,98,100,5.82,overcast clouds
685,Saratoga Springs,US,2022-01-09 19:48:52,43.0831,-73.7846,35.87,92,100,1.01,overcast clouds
686,Arman,RU,2022-01-09 19:50:04,59.7,150.1667,10.02,84,100,9.28,overcast clouds
687,Fort Nelson,CA,2022-01-09 19:50:05,58.8053,-122.7002,-22.41,69,100,0.0,light snow
688,Svetlaya,RU,2022-01-09 19:50:05,46.5389,138.3297,7.09,70,7,7.02,clear sky
689,Ulaangom,MN,2022-01-09 19:50:05,49.9811,92.0667,-11.87,94,99,2.8,overcast clouds
690,Pingzhuang,CN,2022-01-09 19:50:06,42.0372,119.2889,14.32,72,100,7.2,overcast clouds
691,Sarh,TD,2022-01-09 19:50:06,9.1429,18.3923,82.31,36,0,0.0,clear sky
692,Pozzallo,IT,2022-01-09 19:51:06,36.7305,14.8499,52.45,69,90,30.44,overcast clouds
693,Mnogovershinnyy,RU,2022-01-09 19:51:07,53.9353,139.9242,-7.37,89,100,6.49,overcast clouds
694,Martapura,ID,2022-01-09 19:51:07,-3.4167,114.85,75.29,100,75,4.61,moderate rain
695,Huambo,AO,2022-01-09 19:51:07,-12.7761,15.7392,60.24,91,100,1.52,overcast clouds
696,Kathu,TH,2022-01-09 19:51:08,7.9178,98.3332,76.82,79,95,8.48,overcast clouds
697,Goure,NE,2022-01-09 19:51:08,13.9835,10.2704,66.02,15,2,15.46,clear sky
698,Beian,NO,2022-01-09 19:51:08,63.6559,9.5683,33.89,60,0,19.57,clear sky
699,Tual,ID,2022-01-09 19:51:09,-5.6667,132.75,82.17,80,100,9.8,overcast clouds
700,Nidau,CH,2022-01-09 19:51:09,47.1255,7.2403,38.91,93,75,5.75,broken clouds
701,Teknaf,BD,2022-01-09 19:51:09,20.8624,92.3058,64.71,72,0,6.51,clear sky
702,Ola,RU,2022-01-09 19:51:10,59.5833,151.2833,10.15,81,100,10.78,overcast clouds
703,Nyuzen,JP,2022-01-09 19:51:10,36.9333,137.5,39.51,78,100,9.6,overcast clouds
704,Feira De Santana,BR,2022-01-09 19:50:46,-12.2667,-38.9667,83.79,59,99,10.18,heavy intensity rain
